{
  "cities": [
    {
      "cityName": "Lengkong Kecil",
      "country": "Indonesia",
      "emoji": "ðŸ‡®ðŸ‡©",
      "date": "2023-12-11T14:21:27.080Z",
      "notes": "Jalan-jalan dan makan malam",
      "position": {
        "lat": "-6.9230555492355945",
        "lng": "107.61351943016054"
      },
      "id": 2
    },
    {
      "cityName": "TSM",
      "country": "Indonesia",
      "emoji": "ðŸ‡®ðŸ‡©",
      "date": "2023-12-13T14:22:13.000Z",
      "notes": "Nonton film",
      "position": {
        "lat": "-6.926314608070206",
        "lng": "107.63652741909029"
      },
      "id": 3
    },
    {
      "cityName": "ITB",
      "country": "Indonesia",
      "emoji": "ðŸ‡®ðŸ‡©",
      "date": "2023-12-15T14:24:07.000Z",
      "notes": "Main ke ITB",
      "position": {
        "lat": "-6.893187058736382",
        "lng": "107.6105582714081"
      },
      "id": 4
    },
    {
      "cityName": "Stasiun",
      "country": "Indonesia",
      "emoji": "ðŸ‡®ðŸ‡©",
      "date": "2023-12-16T14:24:32.000Z",
      "notes": "Persiapan pulang",
      "position": {
        "lat": "-6.914299515690649",
        "lng": "107.6010847091675"
      },
      "id": 5
    },
    {
      "cityName": "Summarecon",
      "country": "Indonesia",
      "emoji": "ðŸ‡®ðŸ‡©",
      "date": "2024-06-01T16:26:25.407Z",
      "notes": "Olahraga",
      "position": {
        "lat": "-6.952366412691363",
        "lng": "107.6887607574463"
      },
      "id": 6
    },
    {
      "cityName": "Bandara Husein",
      "country": "Indonesia",
      "emoji": "ðŸ‡®ðŸ‡©",
      "date": "2024-06-01T17:33:38.670Z",
      "notes": "",
      "position": {
        "lat": "-6.900904236370787",
        "lng": "107.57846832275392"
      },
      "id": 7
    }
  ]
}